City_ID,City,Lat,Lng,Max Temp,Humidity,Cloudiness,Wind Speed,Country,Date
0,puerto leguizamo,-0.1934,-74.7819,21.77,98,100,1.16,CO,1676081253
1,hobart,-42.8794,147.3294,22.37,67,75,4.63,AU,1676080779
2,rikitea,-23.1203,-134.9692,26.53,75,100,7.85,PF,1676081254
3,hofn,64.2539,-15.2082,2.82,81,100,1.15,IS,1676081255
4,mahebourg,-20.4081,57.7,26.25,74,7,4.28,MU,1676081256
5,calama,-22.4667,-68.9333,17.27,42,0,4.12,CL,1676081048
6,cape town,-33.9258,18.4232,21.82,68,0,0.89,ZA,1676081133
7,east london,-33.0153,27.9116,21.73,81,87,3.57,ZA,1676081257
8,paamiut,61.994,-49.6678,-17.53,88,75,3.88,GL,1676081257
9,lufilufi,-13.8745,-171.5986,31.88,78,74,6.38,WS,1676081258
10,jumla,29.2747,82.1838,3.59,46,0,1.81,NP,1676080984
11,barrow,71.2906,-156.7887,-23.99,77,100,9.77,US,1676081258
12,busselton,-33.65,115.3333,21.46,42,0,3.68,AU,1676081048
13,poum,-20.2333,164.0167,27.65,75,89,9.25,NC,1676081260
14,port alfred,-33.5906,26.891,21.21,93,100,0.45,ZA,1676081260
15,nemuro,43.3236,145.575,-2.02,86,100,5.63,JP,1676081261
16,benjamin aceval,-24.9667,-57.5667,25.08,81,10,2.9,PY,1676081261
17,hermanus,-34.4187,19.2345,19.89,80,0,4.56,ZA,1676081262
18,constitucion,-35.3333,-72.4167,15.03,73,0,6.96,CL,1676081263
19,georgetown,5.4112,100.3354,28.96,74,20,2.06,MY,1676081263
20,avarua,-21.2078,-159.775,28.03,78,20,4.63,CK,1676081264
21,klaksvik,62.2266,-6.589,8.51,83,100,10.62,FO,1676081264
22,castro,-24.7911,-50.0119,16.96,97,99,2.2,BR,1676081265
23,borazjan,29.2666,51.2159,10.06,53,1,0.16,IR,1676081265
24,albany,42.6001,-73.9662,5.2,72,41,5.38,US,1676081176
25,grand forks,47.9417,-97.4337,-4.04,80,0,6.17,US,1676081266
26,ushuaia,-54.8,-68.3,5.99,92,19,3.14,AR,1676081267
27,vaini,-21.2,-175.2,24.09,100,100,5.14,TO,1676081267
28,burley,42.5357,-113.7928,-0.95,70,0,7.2,US,1676081268
29,upernavik,72.7868,-56.1549,-26.78,93,100,2.34,GL,1676081269
30,padang,-0.9492,100.3543,26.03,72,36,2.04,ID,1676081269
31,bilibino,68.0546,166.4372,-38.81,97,98,0.34,RU,1676081270
32,hualmay,-11.0964,-77.6139,22.82,84,100,3.2,PE,1676081270
33,kaitangata,-46.2817,169.8464,17.24,63,56,5.14,NZ,1676080973
34,viedma,-40.8135,-62.9967,23.3,55,0,6.16,AR,1676081271
35,new norfolk,-42.7826,147.0587,22.62,43,13,1.36,AU,1676081272
36,kondopoga,62.2057,34.2614,-6.29,89,48,4.76,RU,1676081272
37,unhel,23.3333,75.5667,16.94,38,0,3.37,IN,1676081273
38,narsaq,60.9167,-46.05,-6.88,97,63,1.33,GL,1676081273
39,jining,35.405,116.5814,6.53,72,88,4.22,CN,1676081274
40,la asuncion,11.0333,-63.8628,24.3,83,2,7.1,VE,1676081274
41,pisco,-13.7,-76.2167,24.03,83,20,4.12,PE,1676081275
42,dingle,10.9995,122.6711,27.67,72,86,6.42,PH,1676081276
43,kapaa,22.0752,-159.319,26.18,67,100,9.26,US,1676081276
44,huarmey,-10.0681,-78.1522,22.45,85,99,3.02,PE,1676081277
45,yelizovo,53.1873,158.3805,-9.92,48,20,3.0,RU,1676081277
46,nome,64.5011,-165.4064,-15.96,66,0,10.29,US,1676081278
47,balkanabat,39.5108,54.3671,-0.96,58,16,1.91,TM,1676081278
48,thompson,55.7435,-97.8558,-8.5,97,100,2.51,CA,1676081279
49,salalah,17.0151,54.0924,24.05,27,0,5.66,OM,1676081279
50,bluff,-46.6,168.3333,20.45,65,44,6.24,NZ,1676081280
51,hithadhoo,-0.6,73.0833,27.41,66,28,4.55,MV,1676081280
52,lompoc,34.6391,-120.4579,12.55,81,75,8.94,US,1676081281
53,leningradskiy,69.3833,178.4167,-29.05,96,100,5.28,RU,1676081282
54,butka,56.7179,63.7866,-6.0,96,100,3.18,RU,1676081283
55,pangnirtung,66.1451,-65.7125,-38.23,93,89,1.21,CA,1676081238
56,andapa,-14.65,49.65,18.87,98,55,0.9,MG,1676081105
57,shakawe,-18.3667,21.85,21.46,60,95,1.32,BW,1676081284
58,razdolnoye,43.55,131.9167,-1.77,85,100,1.61,RU,1676081284
59,jalu,29.0331,21.5482,11.05,66,0,3.89,LY,1676081285
60,saint george,37.1041,-113.5841,11.33,19,0,5.14,US,1676081286
61,half moon bay,37.4636,-122.4286,11.75,79,100,9.77,US,1676081085
62,kodiak,57.79,-152.4072,2.73,81,75,2.06,US,1676081287
63,beipiao,41.7919,120.7792,2.63,58,55,3.04,CN,1676081288
64,tasiilaq,65.6145,-37.6368,-6.91,97,100,0.64,GL,1676081035
65,los llanos de aridane,28.6585,-17.9182,13.86,92,75,1.03,ES,1676081289
66,saskylakh,71.9167,114.0833,-43.38,99,58,3.21,RU,1676081290
67,ust-kuyga,70.0167,135.6,-42.79,99,100,2.62,RU,1676081290
68,cabo san lucas,22.8909,-109.9124,23.17,37,20,3.6,MX,1676081259
69,beloha,-25.1667,45.05,21.63,87,26,1.7,MG,1676081291
70,portland,45.5234,-122.6762,11.33,80,46,1.79,US,1676080632
71,evensk,61.95,159.2333,-16.83,68,100,6.15,RU,1676081292
72,bredasdorp,-34.5322,20.0403,19.24,89,0,3.68,ZA,1676081293
73,taoudenni,22.6783,-3.9836,21.43,15,100,10.03,ML,1676081294
74,ancud,-41.8697,-73.8203,13.98,82,57,3.16,CL,1676081294
75,esperance,-33.8667,121.9,19.92,62,55,6.15,AU,1676081295
76,oka,45.4649,-74.0889,-0.06,85,97,0.45,CA,1676081295
77,jamestown,42.097,-79.2353,0.29,96,100,7.2,US,1676081180
78,belyy yar,53.6039,91.3903,-25.64,96,40,1.0,RU,1676081297
79,cidreira,-30.1811,-50.2056,23.67,92,2,3.27,BR,1676081297
80,henties bay,-22.116,14.2845,18.62,86,93,1.79,NA,1676081298
81,bambous virieux,-20.3428,57.7575,26.23,74,13,4.17,MU,1676081299
82,kattivakkam,13.2167,80.3167,22.05,72,100,1.6,IN,1676081300
83,butaritari,3.0707,172.7902,27.3,77,36,9.29,KI,1676081300
84,maragogi,-9.0122,-35.2225,25.72,77,86,4.05,BR,1676081301
85,alta floresta,-9.8756,-56.0861,22.93,93,89,0.57,BR,1676081302
86,victoria,22.2855,114.1577,22.2,90,98,5.81,HK,1676081208
87,dicabisagan,17.0818,122.4157,27.19,63,86,0.99,PH,1676081303
88,rocha,-34.4833,-54.3333,21.13,84,0,2.79,UY,1676081304
89,mataura,-46.1927,168.8643,20.27,36,35,0.94,NZ,1676081305
90,rovaniemi,66.5,25.7167,-12.33,92,0,1.54,FI,1676081305
91,atuona,-9.8,-139.0333,26.16,75,7,6.79,PF,1676081306
92,nikolskoye,59.7035,30.7861,-2.06,88,100,4.08,RU,1676081306
93,batagay-alyta,67.8006,130.4114,-41.42,98,64,1.18,RU,1676081307
94,arraial do cabo,-22.9661,-42.0278,24.11,93,100,7.63,BR,1676081117
95,benguela,-12.5763,13.4055,22.98,79,34,1.87,AO,1676081309
96,ginir,7.1333,40.7,14.14,33,15,1.83,ET,1676081309
97,airai,-8.9266,125.4092,20.28,79,99,2.35,TL,1676081310
98,scarborough,54.2797,-0.4044,9.76,84,100,1.79,GB,1676081165
99,saint-philippe,-21.3585,55.7679,24.77,81,14,3.73,RE,1676081311
100,hilo,19.7297,-155.09,24.41,81,100,3.6,US,1676081085
101,bengkulu,-3.8004,102.2655,26.91,71,31,3.69,ID,1676081312
102,korla,41.7597,86.1469,0.64,50,100,5.01,CN,1676081313
103,anadyr,64.75,177.4833,-31.67,67,20,5.0,RU,1676081313
104,asyut,27.181,31.1837,10.88,45,67,1.88,EG,1676081314
105,eten,-6.9081,-79.8642,24.14,78,0,6.69,PE,1676081315
106,broome,42.2506,-75.833,3.68,82,100,6.69,US,1676081315
107,marsabit,2.3284,37.9899,19.73,36,8,5.28,KE,1676081316
108,burnie,-41.0667,145.9167,23.86,51,24,3.92,AU,1676081317
109,khatanga,71.9667,102.5,-30.18,87,100,4.55,RU,1676081317
110,valley city,46.9233,-98.0032,-4.71,100,17,6.69,US,1676081103
111,punta arenas,-53.15,-70.9167,9.06,71,0,7.72,CL,1676081259
112,oussouye,12.485,-16.5469,21.2,69,4,3.08,SN,1676081318
113,starotimoshkino,53.7191,47.5312,-7.59,90,78,5.89,RU,1676081319
114,kushima,31.4583,131.2333,13.76,61,79,3.5,JP,1676081320
115,esperantina,-3.9017,-42.2336,24.19,90,100,1.43,BR,1676081320
116,bogorodskoye,56.55,37.8833,-3.69,87,100,6.68,RU,1676081321
117,faanui,-16.4833,-151.75,27.87,68,53,5.08,PF,1676081321
118,deputatskiy,69.3,139.9,-42.1,99,50,1.47,RU,1676081322
119,muros,42.7762,-9.0603,1.76,63,0,3.21,ES,1676081323
120,hasaki,35.7333,140.8333,11.27,51,0,11.92,JP,1676081323
121,beringovskiy,63.05,179.3167,-28.57,91,35,5.0,RU,1676081324
122,talnakh,69.4865,88.3972,-14.95,96,100,6.6,RU,1676081325
123,san rafael,-34.6177,-68.3301,29.18,25,48,4.96,AR,1676081325
124,brejo da madre de deus,-8.1458,-36.3711,20.09,89,59,2.71,BR,1676081138
125,severo-kurilsk,50.6789,156.125,-5.98,71,97,9.26,RU,1676081326
126,sibolga,1.7427,98.7792,26.54,72,90,0.14,ID,1676081244
127,tiksi,71.6872,128.8694,-36.57,99,99,2.32,RU,1676081327
128,nanortalik,60.1432,-45.2371,-9.28,71,100,10.28,GL,1676081327
129,pemba,-12.974,40.5178,23.88,91,100,5.45,MZ,1676081328
130,fairbanks,64.8378,-147.7164,-15.05,76,0,1.54,US,1676081219
131,arkhara,49.4212,130.0842,-12.91,91,100,0.72,RU,1676081329
132,lebu,-37.6167,-73.65,14.99,85,0,6.24,CL,1676081329
133,knysna,-34.0363,23.0471,20.19,64,0,2.79,ZA,1676081330
134,spirit river,55.7833,-118.8361,2.43,64,91,7.26,CA,1676081330
135,olinda,-8.0089,-34.8553,27.85,69,40,2.57,BR,1676080867
136,kyren,51.6828,102.1408,-15.4,83,30,0.15,RU,1676081331
137,yerbogachen,61.2767,108.0108,-27.98,98,95,2.9,RU,1676081332
138,media luna,20.1419,-77.435,25.24,73,40,2.72,CU,1676081332
139,puerto quijarro,-17.7833,-57.7667,22.79,99,100,1.24,BO,1676081333
140,carnarvon,-24.8667,113.6333,27.86,51,5,9.03,AU,1676081333
141,puerto ayora,-0.7393,-90.3518,26.42,92,98,1.34,EC,1676081334
142,conceicao do araguaia,-8.2578,-49.2647,26.03,71,86,0.76,BR,1676081335
143,sitka,57.0531,-135.33,3.94,65,100,6.69,US,1676081335
144,guarapari,-20.6667,-40.4975,26.05,91,91,4.04,BR,1676081336
145,mareeba,-17.0,145.4333,30.27,69,100,3.25,AU,1676081337
146,danilovka,50.3557,44.1168,-10.61,90,15,4.46,RU,1676081337
147,brae,60.3964,-1.353,8.22,81,100,9.96,GB,1676081338
148,jardim,-21.4803,-56.1381,21.88,99,100,1.67,BR,1676081338
149,shenzhen,22.5455,114.0683,22.14,87,98,3.73,CN,1676081270
150,cienfuegos,22.1461,-80.4356,24.08,78,8,2.57,CU,1676081339
151,the valley,18.217,-63.0578,25.05,68,0,9.55,AI,1676081146
152,norman wells,65.282,-126.8329,-20.39,98,100,2.34,CA,1676081233
153,leh,34.1667,77.5833,-14.65,83,99,1.16,IN,1676081340
154,atambua,-9.1061,124.8925,26.13,79,100,2.82,ID,1676081341
155,dikson,73.5069,80.5464,-16.48,95,100,5.3,RU,1676081342
156,benjamin constant,-4.3831,-70.0311,24.07,94,75,1.54,BR,1676081342
157,bethel,41.3712,-73.414,8.3,59,100,5.14,US,1676081343
158,opuwo,-18.0607,13.84,19.33,54,5,2.16,NA,1676081344
159,falam,22.9167,93.6833,14.43,43,1,1.67,MM,1676081345
160,ilulissat,69.2167,-51.1,-22.99,70,100,3.6,GL,1676081345
161,mamontovo,52.7055,81.6244,-15.51,93,100,4.36,RU,1676081346
162,vila velha,-20.3297,-40.2925,26.97,90,75,2.57,BR,1676081201
163,ribeira grande,38.5167,-28.7,14.32,82,89,0.45,PT,1676081347
164,muravlenko,63.7898,74.523,-11.78,94,99,8.0,RU,1676081347
165,arawa,-6.2132,155.5367,31.72,58,86,2.75,PG,1676081348
166,shestakovo,56.4915,103.96,-18.95,98,97,1.36,RU,1676081349
167,elko,41.0002,-115.5012,-3.86,79,55,0.89,US,1676081349
168,clinton,42.587,-82.9199,0.57,73,100,5.66,US,1676081350
169,roald,62.5833,6.1333,7.51,87,100,2.57,NO,1676081350
170,husavik,66.0449,-17.3389,3.04,73,96,8.05,IS,1676081351
171,dubai,25.2582,55.3047,15.14,82,20,2.57,AE,1676081069
172,muzhi,65.3667,64.6667,-10.22,96,71,3.88,RU,1676081352
173,nikolayevka,53.1257,47.2041,-8.09,91,80,5.87,RU,1676081139
174,turukhansk,65.8167,87.9833,-11.73,94,100,7.63,RU,1676081353
175,kahului,20.8947,-156.47,25.17,72,40,10.8,US,1676081354
176,lavrentiya,65.5833,-171.0,-28.48,87,34,4.74,RU,1676081354
177,luang prabang,19.8856,102.1347,25.5,41,4,0.61,LA,1676081355
178,ahipara,-35.1667,173.1667,20.69,74,100,6.89,NZ,1676081356
179,nabire,-3.3667,135.4833,29.44,66,93,1.85,ID,1676081356
180,te anau,-45.4167,167.7167,20.05,45,53,0.73,NZ,1676081357
181,batticaloa,7.7102,81.6924,24.23,75,100,1.06,LK,1676081357
182,kruisfontein,-34.0033,24.7314,16.91,95,10,2.45,ZA,1676081358
183,tuktoyaktuk,69.4541,-133.0374,-26.83,93,100,6.2,CA,1676081359
184,san patricio,28.017,-97.5169,13.92,43,3,5.76,US,1676081359
185,giddalur,15.35,78.9167,21.13,64,100,0.93,IN,1676081360
186,luderitz,-26.6481,15.1594,16.75,97,59,1.74,NA,1676081361
187,lafiagi,8.8667,5.4167,26.13,21,0,1.18,NG,1676081361
188,suntar,62.1444,117.6319,-30.35,97,90,1.2,RU,1676081362
189,samana,19.2056,-69.3369,23.67,79,3,4.89,DO,1676081362
190,orel-izumrud,43.4583,39.9244,4.01,87,100,2.0,RU,1676081363
191,belmonte,-15.8631,-38.8828,25.0,89,0,3.61,BR,1676081081
192,vila,42.0304,-8.1588,2.61,56,0,2.21,PT,1676081364
193,voyinka,45.8699,33.9914,-4.33,69,77,2.67,UA,1676081364
194,san angelo,31.4638,-100.437,6.17,41,0,2.06,US,1676081302
195,necochea,-38.5473,-58.7368,26.06,58,87,6.79,AR,1676081160
196,turayf,31.6725,38.6637,2.51,48,0,7.39,SA,1676081365
197,urengoy,65.9667,78.3667,-12.0,95,76,5.89,RU,1676081366
198,mount isa,-20.7333,139.5,32.87,40,9,6.17,AU,1676081366
199,noyabrsk,63.1994,75.4507,-12.56,95,100,8.21,RU,1676081367
200,mar del plata,-38.0023,-57.5575,24.01,100,0,3.6,AR,1676081197
201,cartagena del chaira,1.3349,-74.8429,24.23,76,100,1.5,CO,1676081368
202,japura,-0.3167,102.35,26.62,81,87,2.09,ID,1676081368
203,praia da vitoria,38.7333,-27.0667,13.2,91,5,3.2,PT,1676081369
204,constantine,36.365,6.6147,0.67,86,40,1.54,DZ,1676081370
205,porto santo,33.072,-16.3415,16.21,77,40,5.14,PT,1676081370
206,hamilton,39.1834,-84.5333,2.35,81,0,2.06,US,1676081056
207,ugoofaaru,5.6667,73.0,26.52,76,38,2.65,MV,1676081371
208,puerto del rosario,28.5004,-13.8627,16.86,88,75,9.26,ES,1676081371
209,koslan,63.4564,48.8989,-5.31,91,100,5.17,RU,1676081372
210,sept-iles,50.2001,-66.3821,-10.0,84,100,5.14,CA,1676081140
211,pucallpa,-8.3791,-74.5539,27.02,83,0,1.54,PE,1676081318
212,vardo,70.3705,31.1107,-7.01,73,40,10.29,NO,1676081373
213,souillac,-20.5167,57.5167,24.45,78,1,3.88,MU,1676081374
214,lac du bonnet,50.2536,-96.0612,-3.77,84,92,4.89,CA,1676081374
215,aklavik,68.2191,-135.0107,-23.74,98,100,5.17,CA,1676081375
216,port hardy,50.6996,-127.4199,5.17,90,92,5.5,CA,1676081376
217,eureka,40.8021,-124.1637,8.47,93,100,1.97,US,1676081376
218,mao,39.8885,4.2658,4.31,75,0,2.06,ES,1676081377
219,saldanha,-33.0117,17.9442,20.51,63,0,1.44,ZA,1676081377
220,avera,33.194,-82.5271,13.08,73,100,1.93,US,1676081378
221,ponta do sol,32.6667,-17.1,13.89,79,100,4.29,PT,1676081378
222,buala,-8.145,159.5921,29.38,69,99,0.98,SB,1676081379
223,sakakah,29.9697,40.2064,5.76,43,50,6.03,SA,1676081200
224,haines junction,60.7522,-137.5108,-13.58,98,90,1.55,CA,1676081380
225,sovetskiy,61.3614,63.5842,-10.4,96,100,3.49,RU,1676081380
226,vilyuysk,63.7553,121.6247,-38.57,97,94,0.76,RU,1676081381
227,iqaluit,63.7506,-68.5145,-35.17,66,38,2.24,CA,1676081381
228,port macquarie,-31.4333,152.9167,29.38,56,0,3.92,AU,1676081382
229,bathsheba,13.2167,-59.5167,24.92,75,13,9.53,BB,1676081383
230,sorong,-0.8833,131.25,28.2,72,100,3.01,ID,1676081124
231,dukat,62.55,155.55,-28.06,79,100,1.5,RU,1676081383
232,zhuzhou,27.8333,113.15,8.22,91,100,1.5,CN,1676081384
233,matagami,49.7502,-77.6328,-17.19,96,77,3.32,CA,1676081385
234,rio grande,-32.035,-52.0986,24.38,80,0,6.53,BR,1676081385
235,along,28.1667,94.7667,13.6,85,100,0.36,IN,1676081386
236,algiers,36.7525,3.042,3.9,87,20,1.54,DZ,1676081214
237,bijar,35.8668,47.6051,-19.56,99,76,0.94,IR,1676081387
238,acarau,-2.8856,-40.12,26.59,81,98,6.32,BR,1676081387
239,sao filipe,14.8961,-24.4956,21.16,76,100,3.21,CV,1676081388
240,yellowknife,62.456,-114.3525,-17.47,84,100,5.36,CA,1676081388
241,chirongui,-12.9319,45.1483,27.96,76,100,5.11,YT,1676081389
242,yulara,-25.2406,130.9889,36.57,16,0,4.45,AU,1676081389
243,novocheremshansk,54.3571,50.1666,-11.42,94,94,4.55,RU,1676081390
244,vao,-22.6667,167.4833,26.56,76,82,16.79,NC,1676081390
245,matca,45.85,27.5333,-6.44,83,11,1.99,RO,1676081391
246,codrington,-38.2667,141.9667,24.22,50,22,6.59,AU,1676081391
247,kloulklubed,7.0419,134.2556,26.28,76,100,4.21,PW,1676081392
248,berlevag,70.8578,29.0864,-2.0,86,40,8.75,NO,1676081392
249,qaanaaq,77.484,-69.3632,-29.36,68,13,1.22,GL,1676081393
250,semey,50.4111,80.2275,-13.88,66,0,7.0,KZ,1676081393
251,kiunga,-6.1219,141.2906,31.67,57,89,1.71,PG,1676081394
252,walvis bay,-22.9575,14.5053,17.92,90,5,2.29,NA,1676081394
253,bandarbeyla,9.4942,50.8122,24.54,67,83,8.56,SO,1676081395
254,keti bandar,24.1447,67.4497,20.55,84,0,4.09,PK,1676081395
255,pevek,69.7008,170.3133,-31.49,92,100,2.82,RU,1676081396
256,sao lourenco do sul,-31.3653,-51.9783,22.85,85,0,4.33,BR,1676081151
257,solnechnyy,50.7214,136.6319,-14.84,84,93,1.4,RU,1676081396
258,muyezerskiy,63.9333,31.65,-5.79,90,100,5.23,RU,1676081397
259,tshikapa,-6.4167,20.8,23.14,79,100,0.56,CD,1676081397
260,nyandoma,61.669,40.1991,-3.29,95,100,4.84,RU,1676081398
261,ambulu,-8.345,113.6058,27.75,76,94,0.2,ID,1676081398
262,auki,-8.7676,160.7034,29.92,65,100,2.46,SB,1676081399
263,sinor,21.9167,73.3333,16.01,40,0,0.46,IN,1676081400
264,sangar,63.9242,127.4739,-37.44,89,75,0.58,RU,1676081400
265,barcelos,41.5388,-8.6151,10.08,62,0,2.91,PT,1676081401
266,tazovskiy,67.4667,78.7,-12.44,95,96,5.05,RU,1676081402
267,otjiwarongo,-20.4637,16.6477,19.06,61,32,2.24,NA,1676081403
268,yumen,40.2833,97.2,-2.89,43,100,3.07,CN,1676081404
269,araouane,18.9048,-3.5265,24.12,12,25,3.21,ML,1676081404
270,makakilo city,21.3469,-158.0858,26.18,52,0,13.89,US,1676081405
271,goderich,43.7501,-81.7165,-0.61,74,100,12.88,CA,1676081406
272,sao gabriel da cachoeira,-0.1303,-67.0892,22.81,98,71,0.7,BR,1676081406
273,velsk,61.0701,42.0983,-2.46,90,100,5.31,RU,1676081407
274,acapulco,16.8634,-99.8901,27.9,65,0,2.57,MX,1676081408
275,karratha,-20.7377,116.8463,32.24,58,5,8.21,AU,1676081408
276,kokopo,-4.352,152.2633,26.49,80,100,1.67,PG,1676081409
277,louis trichardt,-23.0439,29.9032,19.34,98,100,2.21,ZA,1676081410
278,estelle,29.8458,-90.1067,13.33,81,100,2.06,US,1676081411
279,vila franca do campo,37.7167,-25.4333,12.23,90,50,1.83,PT,1676081411
280,phuket,8.0,98.25,28.12,78,20,3.6,TH,1676081412
281,killybegs,54.6333,-8.45,8.93,84,100,5.91,IE,1676081351
282,saint anthony,45.0205,-93.218,-4.04,74,0,4.63,US,1676081414
283,taree,-31.9,152.4667,32.81,63,1,2.52,AU,1676081415
284,puerto escondido,15.85,-97.0667,26.46,73,0,1.54,MX,1676081415
285,olafsvik,64.8945,-23.7142,4.31,84,100,10.11,IS,1676081416
286,dezhou,37.4486,116.2925,6.36,69,7,4.7,CN,1676081416
287,tatarsk,55.219,75.9828,-24.4,100,28,2.45,RU,1676081417
288,russell,32.3502,-85.1999,12.57,87,0,2.57,US,1676081417
289,progreso,21.2833,-89.6667,25.62,83,82,4.81,MX,1676081418
290,lidkoping,58.5052,13.1577,6.34,90,100,9.55,SE,1676081419
291,chara,56.9064,118.2631,-18.58,83,96,0.53,RU,1676081420
292,luganville,-15.5333,167.1667,30.61,69,85,4.35,VU,1676081420
293,asfi,32.2994,-9.2372,14.91,67,81,1.67,MA,1676081421
294,moreira sales,-24.0622,-53.0069,20.4,96,5,3.01,BR,1676081422
295,calabozo,8.9242,-67.4293,27.83,50,20,4.71,VE,1676081422
296,machali,-34.1833,-70.6667,22.28,30,0,0.36,CL,1676081423
297,maltahohe,-24.8333,16.9833,23.81,31,60,5.74,NA,1676081424
298,sabha,27.0377,14.4283,7.47,42,5,4.19,LY,1676081424
299,cockburn town,21.4612,-71.1419,24.98,69,40,6.17,TC,1676081425
300,pitsunda,43.1592,40.3378,4.1,79,99,1.05,GE,1676081426
301,touros,-5.1989,-35.4608,26.71,70,37,5.79,BR,1676081426
302,batagay,67.6333,134.6333,-44.2,97,76,0.45,RU,1676081427
303,abu samrah,35.3029,37.1841,3.71,74,85,3.09,SY,1676081427
304,sobolevo,54.4299,31.8996,-6.07,95,78,4.43,RU,1676081428
305,antalaha,-14.9003,50.2788,22.46,91,48,2.38,MG,1676081429
306,takapau,-40.0333,176.35,21.52,52,100,4.16,NZ,1676081429
307,gagret,31.6667,76.0667,11.1,80,3,1.9,IN,1676081320
308,cedar falls,42.5278,-92.4455,-3.01,80,0,1.34,US,1676081422
309,provideniya,64.3833,-173.3,-26.42,88,100,3.18,RU,1676081430
310,makinsk,52.6292,70.4169,-23.74,100,94,2.27,KZ,1676081431
311,chase,50.8165,-119.6857,1.16,97,100,1.0,CA,1676081432
312,isangel,-19.55,169.2667,27.79,88,100,10.44,VU,1676081432
313,kuusamo,65.9667,29.1833,-14.98,92,0,2.06,FI,1676081433
314,nanakuli,21.3906,-158.1547,26.97,44,0,13.89,US,1676081433
315,pointe-noire,-4.7761,11.8635,25.71,85,100,1.93,CG,1676081434
316,dembi dolo,8.5333,34.8,18.67,44,55,1.58,ET,1676081434
317,nouadhibou,20.931,-17.0347,17.54,82,0,6.3,MR,1676081435
318,qaqortoq,60.7167,-46.0333,-18.68,93,9,1.39,GL,1676081435
319,north bend,43.4065,-124.2243,9.92,94,100,5.66,US,1676081436
320,coswig,51.1333,13.5833,2.85,83,0,4.63,DE,1676081437
321,kavieng,-2.5744,150.7967,27.23,84,100,6.83,PG,1676081437
322,bakchar,57.0186,82.0711,-25.32,99,12,1.19,RU,1676081438
323,bitkine,11.9801,18.2138,22.36,11,5,2.95,TD,1676081438
324,botshabelo,-29.2702,26.7052,14.64,90,100,1.57,ZA,1676081439
325,pacific grove,36.6177,-121.9166,12.51,79,75,5.36,US,1676081439
326,maraa,-1.8333,-65.3667,23.19,95,76,1.09,BR,1676081440
327,katsuura,35.1333,140.3,11.03,54,2,7.79,JP,1676081337
328,cortez,37.3489,-108.5859,-1.28,63,0,2.57,US,1676081441
329,chokurdakh,70.6333,147.9167,-45.4,99,69,2.04,RU,1676081441
330,pathein,16.7833,94.7333,25.41,58,0,4.93,MM,1676081442
331,torbay,47.6666,-52.7314,-3.57,93,100,4.02,CA,1676081442
332,maxixe,-23.8597,35.3472,25.0,93,100,3.0,MZ,1676081443
333,clyde river,70.4692,-68.5914,-33.71,87,4,2.68,CA,1676081444
334,medicine hat,50.0501,-110.6683,3.73,74,100,6.65,CA,1676081444
335,naze,28.3667,129.4833,16.14,63,90,1.47,JP,1676081445
336,maumere,-8.6199,122.2111,28.04,74,94,1.85,ID,1676081445
337,santo augusto,-27.8508,-53.7772,22.69,65,63,4.31,BR,1676081446
338,ejutla de crespo,16.5667,-96.7333,20.53,68,3,1.31,MX,1676081446
339,tessalit,20.1986,1.0114,22.77,14,82,3.65,ML,1676081447
340,cabedelo,-6.9811,-34.8339,25.37,72,100,5.48,BR,1676081448
341,sabak,3.7675,100.9875,23.37,97,100,1.25,MY,1676081448
342,san jeronimo,-11.9472,-75.2829,11.6,83,100,1.49,PE,1676081449
343,cukai,4.25,103.4167,27.43,78,28,2.77,MY,1676081449
344,taltal,-25.4,-70.4833,20.56,81,8,0.33,CL,1676081420
345,tokoroa,-38.2333,175.8667,23.3,53,100,2.68,NZ,1676080856
346,richards bay,-28.783,32.0377,22.29,92,100,5.06,ZA,1676081450
347,manggar,-2.8833,108.2667,28.42,75,100,5.68,ID,1676081451
348,elizabeth city,36.2946,-76.2511,15.01,68,75,3.09,US,1676081451
349,calderitas,18.55,-88.25,24.05,84,0,3.41,MX,1676081452
350,belaya kholunitsa,58.84,50.8528,-8.92,92,100,5.26,RU,1676081452
351,la romana,18.4273,-68.9728,24.2,83,75,0.0,DO,1676081453
352,vigrestad,58.5667,5.7,7.82,91,100,10.76,NO,1676081453
353,kununurra,-15.7667,128.7333,25.99,89,100,5.66,AU,1676081454
354,latung,5.5,120.8833,27.31,75,78,1.82,PH,1676081454
355,panjab,34.388,67.0233,-25.89,100,63,2.38,AF,1676081455
356,mayor pablo lagerenza,-19.9309,-60.7718,24.22,88,97,2.05,PY,1676081456
357,kirovskiy,45.0917,133.5136,-5.23,89,99,1.18,RU,1676081456
358,saint-joseph,-21.3667,55.6167,24.21,79,8,3.81,RE,1676081457
359,victor harbor,-35.5667,138.6167,23.33,57,8,0.45,AU,1676081457
360,miri,4.4148,114.0089,27.24,82,98,2.87,MY,1676081456
361,harper,4.375,-7.7169,26.0,85,3,1.41,LR,1676081362
362,batsfjord,70.6345,29.7185,-3.04,86,100,5.14,NO,1676081458
363,lorengau,-2.0226,147.2712,27.64,76,100,2.9,PG,1676081459
364,coos bay,43.3665,-124.2179,9.96,94,100,5.66,US,1676081459
365,puerto gaitan,4.3133,-72.0816,29.3,46,100,4.36,CO,1676081460
366,boulder,40.0833,-105.3505,1.54,51,0,0.89,US,1676081460
367,belaya rechka,43.4381,43.535,-5.1,74,99,2.37,RU,1676081461
368,parabel,58.6978,81.4825,-21.27,96,19,2.91,RU,1676081461
369,gamba,-2.65,10.0,25.77,90,100,2.87,GA,1676081462
370,gejiu,23.306,103.1635,12.78,37,5,3.12,CN,1676081462
371,burgersdorp,-30.9977,26.3286,15.18,75,100,3.96,ZA,1676081463
372,liverpool,53.4106,-2.9779,10.08,85,100,5.66,GB,1676081397
373,mount vernon,40.9126,-73.8371,9.53,53,75,6.17,US,1676081338
374,zhezkazgan,47.8043,67.7144,-18.01,85,40,4.0,KZ,1676081464
375,pringsewu,-5.3582,104.9744,26.91,80,100,0.47,ID,1676081464
376,homer,59.6425,-151.5483,1.94,64,75,4.12,US,1676081465
377,alofi,-19.0595,-169.9187,26.84,78,97,5.65,NU,1676081466
378,nizhniy kuranakh,58.8353,125.4869,-16.52,93,100,1.29,RU,1676081466
379,roma,43.2128,-75.4557,1.64,87,100,5.66,US,1676081305
380,lata,40.1629,-8.3327,3.37,54,15,4.13,PT,1676081467
381,jeremoabo,-10.075,-38.4808,22.23,88,3,3.43,BR,1676081231
382,bajram curri,42.3554,20.0784,-1.25,74,0,2.33,AL,1676081468
383,chuy,-33.6971,-53.4616,22.21,86,0,3.23,UY,1676081468
384,praia,14.9215,-23.5087,20.3,73,20,6.17,CV,1676081469
385,salekhard,66.53,66.6019,-16.24,100,90,2.27,RU,1676081470
386,ganzhou,28.8184,115.4327,10.25,87,97,1.37,CN,1676081471
387,banikoara,11.2985,2.4386,23.68,10,0,2.29,BJ,1676081198
388,kavaratti,10.5669,72.642,26.59,78,100,3.55,IN,1676081472
389,cap malheureux,-19.9842,57.6142,26.37,75,9,2.24,MU,1676081472
390,bonavista,48.6499,-53.1147,-4.0,92,100,10.57,CA,1676081473
391,puerto madryn,-42.7692,-65.0385,22.93,51,17,3.36,AR,1676081474
392,port elizabeth,-33.918,25.5701,20.45,89,100,4.29,ZA,1676081474
393,anisoc,1.8658,10.7689,21.21,100,56,0.89,GQ,1676081475
394,lima,-12.0432,-77.0282,24.94,78,40,4.63,PE,1676081113
395,ormara,25.2088,64.6357,20.13,38,0,6.52,PK,1676081476
396,micheweni,-4.9667,39.8333,26.84,76,44,4.83,TZ,1676081476
397,ekibastuz,51.6667,75.3667,-15.52,98,97,1.9,KZ,1676081477
398,doha,25.2867,51.5333,14.99,67,0,3.6,QA,1676081477
399,tadine,-21.55,167.8833,26.39,86,100,11.42,NC,1676081478
400,hokitika,-42.7167,170.9667,19.17,56,5,3.17,NZ,1676081401
401,yangmei,24.1023,112.5618,15.55,99,100,0.95,CN,1676081479
402,camacha,33.0833,-16.3333,14.68,77,40,5.14,PT,1676081479
403,uyuni,-20.4597,-66.825,12.19,61,28,5.09,BO,1676081480
404,mizdah,31.4451,12.9801,8.56,88,100,9.18,LY,1676081481
405,ndago,-4.6,34.35,15.92,90,100,1.93,TZ,1676081482
406,anchorage,61.2181,-149.9003,-5.4,81,100,4.63,US,1676081472
407,alice town,25.7167,-79.3,24.25,82,0,5.37,BS,1676081482
408,sao joao da barra,-21.6403,-41.0511,25.1,88,100,8.25,BR,1676081483
409,meulaboh,4.1363,96.1285,25.09,83,87,2.24,ID,1676081244
410,svetlyy,54.675,20.1347,3.03,97,100,11.68,RU,1676081484
411,hovd,48.0056,91.6419,-14.65,68,33,2.65,MN,1676081484
412,tiznit,29.5833,-9.5,10.07,68,74,5.26,MA,1676081485
413,kolga,59.4867,25.6192,-1.07,96,100,3.26,EE,1676081485
414,kathmandu,27.7167,85.3167,7.12,93,20,2.06,NP,1676080659
415,vostok,46.4856,135.8833,-7.69,84,100,1.35,RU,1676081486
416,duluth,46.7833,-92.1066,-4.4,66,75,6.17,US,1676081487
417,imbituba,-28.24,-48.6703,22.85,93,99,3.47,BR,1676081488
418,campo verde,-20.4167,-54.0667,20.7,94,100,1.47,BR,1676081488
419,emba,48.8264,58.1442,-13.95,98,94,3.59,KZ,1676081489
420,mamallapuram,12.6264,80.1722,22.03,72,100,1.12,IN,1676081489
421,colares,38.7992,-9.4469,9.63,61,100,7.6,PT,1676081490
422,shingu,33.7333,135.9833,13.01,45,5,1.39,JP,1676081491
423,sambava,-14.2667,50.1667,23.29,90,29,3.27,MG,1676081492
424,barentu,15.1139,37.5928,20.0,58,0,2.19,ER,1676081492
425,vanavara,60.34,102.2797,-25.41,97,100,2.83,RU,1676081493
426,iracoubo,5.4802,-53.2011,24.29,81,97,5.6,GF,1676081493
427,port-gentil,-0.7193,8.7815,27.47,80,100,3.45,GA,1676081494
428,port augusta,-32.5,137.7667,28.28,35,0,6.09,AU,1676081494
429,muisne,0.6,-80.0333,24.94,87,90,0.64,EC,1676081495
430,bolshoy lug,52.0779,104.0919,-17.9,97,100,1.29,RU,1676081495
431,inuvik,68.3499,-133.7218,-23.58,77,100,0.0,CA,1676081496
432,srednekolymsk,67.45,153.6833,-39.02,96,80,1.72,RU,1676081496
433,dourbali,11.8091,15.8632,21.05,10,5,4.49,TD,1676081497
434,kaeo,-35.1,173.7833,21.29,87,100,7.92,NZ,1676081497
435,kihei,20.785,-156.4656,25.17,69,40,10.8,US,1676081498
436,khotkovo,56.257,37.9954,-3.12,87,100,5.94,RU,1676081498
437,egvekinot,66.3167,-179.1667,-32.62,87,16,3.5,RU,1676081499
438,kijang,35.2442,129.2139,8.06,65,100,3.07,KR,1676081499
439,qarchak,35.4394,51.5689,0.37,43,0,1.3,IR,1676081500
440,longyearbyen,78.2186,15.6401,-6.09,73,75,5.14,SJ,1676081501
441,skibbereen,51.55,-9.2667,9.5,95,84,3.49,IE,1676081501
442,muskogee,35.5834,-95.3336,3.12,77,100,6.17,US,1676081357
443,nalut,30.3333,10.85,6.49,79,95,5.38,LY,1676081502
444,guerrero negro,27.9769,-114.0611,17.62,38,79,4.08,MX,1676081503
445,murud,18.3258,72.965,21.85,43,7,2.22,IN,1676081503
446,san quintin,30.4833,-115.95,17.27,39,100,1.41,MX,1676081504
447,witu,-2.3889,40.4382,25.09,94,100,1.45,KE,1676081504
448,union,40.6334,-74.2663,9.6,58,100,6.69,US,1676081505
449,povenets,62.8487,34.8262,-6.97,88,54,5.59,RU,1676081505
450,port hedland,-20.3167,118.5667,34.03,59,40,6.69,AU,1676081506
451,trairi,-3.2778,-39.2689,25.94,85,87,4.79,BR,1676081299
452,ferrol,43.4832,-8.2369,6.86,77,0,2.71,ES,1676081507
453,nang rong,14.6377,102.7914,29.39,56,18,1.73,TH,1676081507
454,ust-omchug,61.15,149.6333,-22.36,94,100,2.56,RU,1676081508
455,valenca do piaui,-6.4075,-41.7456,23.15,77,36,1.3,BR,1676081508
456,bani walid,31.7566,13.9942,11.25,71,99,5.73,LY,1676081509
457,san jose,37.3394,-121.895,12.32,74,100,6.17,US,1676080863
458,burgeo,47.6167,-57.6152,0.14,96,100,14.36,CA,1676081510
459,salina cruz,16.1667,-95.2,26.61,65,0,10.73,MX,1676081510
460,wilmington,34.2257,-77.9447,18.28,87,40,0.89,US,1676081401
461,port pirie,-33.1833,138.0167,24.6,51,0,4.86,AU,1676081511
462,coari,-4.085,-63.1414,23.62,98,95,1.13,BR,1676081511
463,almaznyy,48.0448,40.045,-9.87,91,5,2.44,RU,1676081512
464,diamantino,-14.4086,-56.4461,23.54,90,38,0.15,BR,1676081513
465,barbacena,-21.2258,-43.7736,17.51,96,100,2.3,BR,1676081514
466,filingue,14.3521,3.3168,22.9,11,0,4.45,NE,1676081515
467,ketchikan,55.3422,-131.6461,3.99,87,20,2.06,US,1676081515
468,vanimo,-2.6741,141.3028,28.29,74,100,5.03,PG,1676081516
469,krasnogorsk,55.8225,37.3181,-2.68,74,0,7.0,RU,1676081516
470,sungaipenuh,-2.0833,101.3833,24.03,60,47,1.49,ID,1676081245
471,adrar,20.5022,-10.0711,19.39,17,98,4.79,MR,1676081517
472,santa cruz,-17.8,-63.1667,23.7,94,75,2.57,BO,1676081484
473,tandil,-37.3217,-59.1332,24.27,32,25,3.22,AR,1676081518
474,clyde,41.3042,-82.9752,1.21,69,0,6.24,US,1676081518
475,faridpur,23.6,89.8333,20.03,34,0,1.77,BD,1676081519
476,seoul,37.5683,126.9778,1.69,59,100,0.48,KR,1676081460
477,belomorsk,64.5232,34.7668,-7.3,81,100,6.13,RU,1676081519
478,okhotsk,59.3833,143.3,-21.66,68,97,4.93,RU,1676081520
479,atasu,48.6814,71.6433,-13.14,96,100,3.43,KZ,1676081323
480,inhambane,-23.865,35.3833,25.5,92,100,3.52,MZ,1676081521
481,caravelas,-17.7125,-39.2481,24.33,88,5,2.64,BR,1676081521
482,lynn haven,30.2455,-85.6483,14.44,96,100,5.14,US,1676081522
483,salta,-24.7859,-65.4117,21.99,78,95,1.34,AR,1676081523
484,inta,66.0317,60.1659,-3.68,77,100,8.55,RU,1676081523
485,binabalian,16.4202,119.9279,25.91,70,79,6.78,PH,1676081524
486,alice springs,-23.7,133.8833,35.75,16,0,6.17,AU,1676081525
487,emmett,43.8735,-116.4993,4.5,58,100,1.32,US,1676081525
488,miraflores,19.2167,-98.8083,16.68,67,64,0.18,MX,1676081526
489,mizan teferi,6.9833,35.5833,19.79,48,23,0.99,ET,1676081526
490,voh,-20.9667,164.7,27.08,77,85,6.47,NC,1676081527
491,ulladulla,-35.35,150.4667,31.26,39,20,2.85,AU,1676081527
492,sola,-13.8833,167.55,28.09,71,100,6.61,VU,1676081528
493,jacareacanga,-6.2222,-57.7528,23.29,97,84,0.96,BR,1676081529
494,kudahuvadhoo,2.6708,72.8944,26.65,70,24,2.91,MV,1676081529
495,ust-maya,60.4167,134.5333,-36.25,98,96,0.55,RU,1676081530
496,komsomolskiy,40.4272,71.7189,-2.6,80,75,3.09,UZ,1676081530
497,honningsvag,70.9821,25.9704,-1.14,80,40,5.66,NO,1676081531
498,marabba,12.35,32.1833,23.75,25,0,4.44,SD,1676081531
499,luan,46.3592,6.9759,-4.24,77,4,2.21,CH,1676081532
500,lavras,-21.2453,-44.9997,19.5,90,100,0.94,BR,1676081332
501,monroe,43.1501,-77.6831,1.77,68,100,8.23,US,1676081533
502,marquette,46.5333,-87.6335,-9.8,83,38,2.32,US,1676081534
503,kodinar,20.7903,70.7031,19.58,67,0,4.4,IN,1676081534
504,meadow lake,34.8014,-106.5436,3.95,38,0,0.91,US,1676081476
505,mahon,39.8885,4.2658,4.31,75,0,2.06,ES,1676081535
506,bozeman,45.6796,-111.0386,-1.82,63,0,1.54,US,1676081536
507,longjiang,47.3303,123.1836,-9.84,92,100,5.86,CN,1676081536
508,lasa,46.6166,10.7002,-0.87,47,86,2.12,IT,1676081537
509,danville,36.586,-79.395,13.36,47,0,3.6,US,1676081537
510,lodhikheda,21.5833,78.8333,19.92,25,0,1.8,IN,1676081538
511,birecik,37.0294,37.9903,0.56,67,8,3.05,TR,1676081538
512,sassandra,4.95,-6.0833,25.16,91,2,1.79,CI,1676081539
513,buin,-33.7333,-70.75,28.4,48,0,0.85,CL,1676081540
514,okoneshnikovo,54.8377,75.0834,-23.22,99,28,2.94,RU,1676081540
515,suhbaatar,50.2314,106.2078,-19.44,99,98,1.22,MN,1676081541
516,karcag,47.3167,20.9333,-2.46,67,57,2.38,HU,1676081542
517,zastron,-30.3023,27.084,13.59,85,99,1.24,ZA,1676081542
518,nha trang,12.25,109.1833,27.0,77,4,1.21,VN,1676081469
519,kearney,40.6995,-99.0815,-0.24,69,0,5.14,US,1676081243
520,shimoda,34.6667,138.95,11.72,75,86,4.13,JP,1676081543
521,maputo,-25.9653,32.5892,22.21,97,100,6.3,MZ,1676081544
522,baracoa,20.3467,-74.4958,24.22,84,55,5.67,CU,1676081376
523,socorro,31.6546,-106.3033,7.56,23,0,0.0,US,1676081545
524,nivala,63.9167,24.9667,-7.4,97,32,2.15,FI,1676081546
525,margate,51.3813,1.3862,6.61,85,100,0.89,GB,1676081546
526,bordighera,43.7806,7.6645,9.2,34,0,0.89,IT,1676081547
527,fugen,47.35,11.85,-2.42,72,56,2.48,AT,1676081547
528,digapahandi,19.3667,84.5833,21.99,62,8,1.29,IN,1676081548
529,azul,-36.777,-59.8585,25.76,31,0,3.79,AR,1676081549
530,westport,41.1415,-73.3579,9.2,54,100,5.66,US,1676081522
531,port blair,11.6667,92.75,23.02,88,55,1.03,IN,1676081549
532,bushehr,28.9684,50.8385,12.45,53,3,4.49,IR,1676081409
533,khani,41.9563,42.9566,-2.24,77,98,1.9,GE,1676081550
534,umm lajj,25.0213,37.2685,19.73,51,3,3.99,SA,1676081551
535,conway,35.0887,-92.4421,5.91,86,100,3.6,US,1676081301
536,waw,7.7029,27.9953,24.13,21,4,2.27,SS,1676081419
537,pimentel,-6.8367,-79.9342,24.16,78,0,6.69,PE,1676081552
538,owando,-0.4819,15.8999,24.1,74,67,0.95,CG,1676081552
539,soma,39.1855,27.6094,-0.2,89,46,3.99,TR,1676081553
540,cherskiy,68.75,161.3,-38.14,95,92,2.22,RU,1676081554
541,kalmunai,7.4167,81.8167,23.82,79,100,1.65,LK,1676081362
542,trat,12.5,102.5,28.82,75,38,1.33,TH,1676081555
543,izhma,65.0083,53.9113,-4.74,90,100,5.62,RU,1676081555
544,pustoshka,56.3355,29.369,-4.71,94,100,3.97,RU,1676081556
545,south lake tahoe,38.9332,-119.9844,5.94,60,6,3.13,US,1676081523
546,kroya,-7.6331,109.2461,28.41,73,32,0.72,ID,1676081557
547,hami,42.8,93.45,-1.57,40,100,5.1,CN,1676081557
548,khor,47.8861,134.9464,-13.03,92,77,2.0,RU,1676081558
549,sisimiut,66.9395,-53.6735,-27.48,100,91,2.24,GL,1676081558
550,saint-francois,46.4154,3.9054,-5.74,93,9,1.54,FR,1676081559
551,ostrovnoy,68.0531,39.5131,-7.41,96,100,2.77,RU,1676081559
552,comodoro rivadavia,-45.8667,-67.5,19.93,38,97,11.97,AR,1676081560
553,isiro,2.7739,27.616,19.61,45,30,0.97,CD,1676081560
554,maitum,6.0392,124.4986,28.62,67,93,1.51,PH,1676081561
555,zhanaozen,43.3,52.8,-4.33,44,10,1.23,KZ,1676081562
556,poli,-3.3333,36.8,16.28,69,74,1.3,TZ,1676081562
557,batocina,44.1536,21.0817,-2.33,75,9,0.69,RS,1676081563
558,hope,33.6671,-93.5916,7.03,96,100,3.38,US,1676081369
559,linhares,-19.3911,-40.0722,22.93,96,6,0.78,BR,1676081564
560,banda aceh,5.5577,95.3222,25.49,82,88,3.3,ID,1676081565
561,hammerfest,70.6634,23.6821,-2.75,93,40,10.29,NO,1676081565
562,sal rei,16.1833,-22.9167,20.4,77,100,6.11,CV,1676081566
563,axim,4.8699,-2.2405,25.68,89,7,2.12,GH,1676081566
564,vilhena,-12.7406,-60.1458,21.15,96,94,0.69,BR,1676081567
